{
  "generated_at": "2026-02-07 15:37:41",
  "items": [
    {
      "lat": 34.926842,
      "lng": 135.759281,
      "name": "KT198-京阪中書島駅前(北改札口)",
      "address": "京都市伏見区三栖向町777",
      "updated": "2026-02-07 15:35:50",
      "weight": 2,
      "count": 2
    },
    {
      "lat": 34.932115,
      "lng": 135.749491,
      "name": "KT103-ミヤコテック駐輪場",
      "address": "京都市伏見区下鳥羽但馬町16",
      "updated": "2026-02-07 15:35:50",
      "weight": 2,
      "count": 2
    },
    {
      "lat": 34.932313,
      "lng": 135.749082,
      "name": "KT143-京都トヨタ伏見店",
      "address": "京都市伏見区下鳥羽但馬町104",
      "updated": "2026-02-07 15:35:50",
      "weight": 4,
      "count": 2
    },
    {
      "lat": 34.93395,
      "lng": 135.764923,
      "name": "KT326-taiho bldg.",
      "address": "京都市伏見区京町4-141-1",
      "updated": "2026-02-07 15:35:50",
      "weight": 1,
      "count": 1
    },
    {
      "lat": 34.937372,
      "lng": 135.74522,
      "name": "KT100-アナテック・ヤナコ",
      "address": "京都市伏見区下鳥羽平塚町145",
      "updated": "2026-02-07 15:35:50",
      "weight": 1,
      "count": 1
    },
    {
      "lat": 34.939783,
      "lng": 135.765245,
      "name": "KT200-京阪丹波橋西ビル",
      "address": "京都市伏見区桃山井伊掃部西町5-93",
      "updated": "2026-02-07 15:35:50",
      "weight": 1,
      "count": 1
    },
    {
      "lat": 34.941541,
      "lng": 135.766109,
      "name": "KT201-京阪丹波橋駅前(北改札口)",
      "address": "京都市伏見区桃山井伊掃部西町5-93",
      "updated": "2026-02-07 15:35:50",
      "weight": 2,
      "count": 2
    },
    {
      "lat": 34.942954,
      "lng": 135.75133,
      "name": "KT535-パルセスイン京都",
      "address": "京都市伏見区下鳥羽東芹川町45番地",
      "updated": "2026-02-07 15:35:50",
      "weight": 5,
      "count": 1
    },
    {
      "lat": 34.94629,
      "lng": 135.762783,
      "name": "KT104-京都信用金庫 北伏見支店",
      "address": "京都市伏見区深草出羽屋敷町23-8",
      "updated": "2026-02-07 15:35:50",
      "weight": 6,
      "count": 2
    },
    {
      "lat": 34.946308,
      "lng": 135.760788,
      "name": "KT190-関西畳(近鉄伏見駅前)",
      "address": "京都市伏見区深草柴田屋敷町63",
      "updated": "2026-02-07 15:35:50",
      "weight": 1,
      "count": 1
    },
    {
      "lat": 34.947476,
      "lng": 135.762922,
      "name": "KT277-カナートモール伏見",
      "address": "京都市伏見区深草出羽屋敷町23-6",
      "updated": "2026-02-07 15:35:50",
      "weight": 1,
      "count": 1
    },
    {
      "lat": 34.948061,
      "lng": 135.764845,
      "name": "KT292-グッドヒル伏見",
      "address": "京都市伏見区深草出羽屋敷4",
      "updated": "2026-02-07 15:35:50",
      "weight": 3,
      "count": 1
    },
    {
      "lat": 34.949826,
      "lng": 135.750458,
      "name": "KT470-京都府赤十字血液センター",
      "address": "京都市伏見区中島北ノ口町26番地",
      "updated": "2026-02-07 15:35:50",
      "weight": 5,
      "count": 1
    },
    {
      "lat": 34.950464,
      "lng": 135.753102,
      "name": "KT194- i・テクノロジー",
      "address": "京都市伏見区竹田田中宮町8",
      "updated": "2026-02-07 15:35:50",
      "weight": 5,
      "count": 1
    },
    {
      "lat": 34.950582,
      "lng": 135.757461,
      "name": "KT294-竹田醍醐田町第3(くるっとパーク)",
      "address": "京都市伏見区竹田醍醐田町19-1,20-1",
      "updated": "2026-02-07 15:35:50",
      "weight": 4,
      "count": 2
    },
    {
      "lat": 34.953116,
      "lng": 135.768026,
      "name": "KT256-ジュワイユ・ゆうき",
      "address": "京都市伏見区深草七瀬川町883",
      "updated": "2026-02-07 15:35:50",
      "weight": 5,
      "count": 1
    },
    {
      "lat": 34.955721,
      "lng": 135.755765,
      "name": "KT081-竹田駅西駐車場(くるっとパーク)",
      "address": "京都市伏見区竹田西桶ノ井町32-1",
      "updated": "2026-02-07 15:35:50",
      "weight": 4,
      "count": 2
    },
    {
      "lat": 34.955807,
      "lng": 135.77004,
      "name": "KT479-藤森駅駐輪場",
      "address": "京都市伏見区伏見区深草大亀谷大山町",
      "updated": "2026-02-07 15:35:50",
      "weight": 2,
      "count": 2
    },
    {
      "lat": 34.956156,
      "lng": 135.770257,
      "name": "KT206-京阪藤森駅前(東口/南改札)",
      "address": "京都市伏見区深草極楽町746-1",
      "updated": "2026-02-07 15:35:50",
      "weight": 1,
      "count": 1
    },
    {
      "lat": 34.959051,
      "lng": 135.762242,
      "name": "KT093-Ryukoku Student Home光輝",
      "address": "京都市伏見区深草西浦町8-67",
      "updated": "2026-02-07 15:35:50",
      "weight": 1,
      "count": 1
    },
    {
      "lat": 34.960634,
      "lng": 135.745871,
      "name": "KT315-NTTコム 京都南ビル",
      "address": "京都市南区上鳥羽石橋町8",
      "updated": "2026-02-07 15:35:50",
      "weight": 5,
      "count": 1
    },
    {
      "lat": 34.961979,
      "lng": 135.767964,
      "name": "KT203-りゅうこく国際ハウス",
      "address": "京都市伏見区深草西浦町4ｰ38",
      "updated": "2026-02-07 15:35:50",
      "weight": 3,
      "count": 1
    },
    {
      "lat": 34.962999,
      "lng": 135.767028,
      "name": "KT202-龍谷大学 成就館(深草キャンパス)",
      "address": "京都市伏見区深草塚本町67",
      "updated": "2026-02-07 15:35:50",
      "weight": 2,
      "count": 2
    },
    {
      "lat": 34.963109,
      "lng": 135.720806,
      "name": "KT528-ペンション　恋都",
      "address": "京都市南区久世川原町112",
      "updated": "2026-02-07 15:35:50",
      "weight": 3,
      "count": 1
    },
    {
      "lat": 34.965122,
      "lng": 135.773192,
      "name": "KT492-メゾンソレイユ稲荷",
      "address": "京都市伏見区深草大門町15-3",
      "updated": "2026-02-07 15:35:50",
      "weight": 1,
      "count": 1
    },
    {
      "lat": 34.965746,
      "lng": 135.752282,
      "name": "KT188-近鉄上鳥羽口駅前",
      "address": "京都市伏見区竹田向代町122",
      "updated": "2026-02-07 15:35:50",
      "weight": 1,
      "count": 1
    },
    {
      "lat": 34.966301,
      "lng": 135.741622,
      "name": "KT281-上鳥羽北村山町",
      "address": "京都市南区上鳥羽北村山町66",
      "updated": "2026-02-07 15:35:50",
      "weight": 3,
      "count": 1
    },
    {
      "lat": 34.96699,
      "lng": 135.717921,
      "name": "KT504-ダイエー 桂南店",
      "address": "京都市南区久世上久世町485",
      "updated": "2026-02-07 15:35:50",
      "weight": 5,
      "count": 1
    },
    {
      "lat": 34.967419,
      "lng": 135.731813,
      "name": "KT144-京都トヨタ クラフトセンター",
      "address": "京都市南区吉祥院観音堂町21",
      "updated": "2026-02-07 15:35:50",
      "weight": 1,
      "count": 1
    },
    {
      "lat": 34.96751,
      "lng": 135.764751,
      "name": "KT338-RISE UP",
      "address": "京都府京都市伏見区深草平田町２６−１",
      "updated": "2026-02-07 15:35:50",
      "weight": 1,
      "count": 1
    },
    {
      "lat": 34.968199,
      "lng": 135.726412,
      "name": "KT242-トヨタカローラ京都吉祥院店",
      "address": "京都市南区吉祥院石原上川原町22",
      "updated": "2026-02-07 15:35:50",
      "weight": 1,
      "count": 1
    },
    {
      "lat": 34.968352,
      "lng": 135.732613,
      "name": "KT392-京都市吉祥院老人デイサービスセンター",
      "address": "京都市南区吉祥院砂ノ町50",
      "updated": "2026-02-07 15:35:50",
      "weight": 5,
      "count": 1
    },
    {
      "lat": 34.969054,
      "lng": 135.769639,
      "name": "KT314-京都工業",
      "address": "京都市伏見区深草下横縄町15",
      "updated": "2026-02-07 15:35:50",
      "weight": 6,
      "count": 2
    },
    {
      "lat": 34.96914,
      "lng": 135.768842,
      "name": "KT028-京阪伏見稲荷駅西",
      "address": "京都市伏見区深草下横縄町24-16",
      "updated": "2026-02-07 15:35:50",
      "weight": 1,
      "count": 1
    },
    {
      "lat": 34.969186,
      "lng": 135.770912,
      "name": "KT257-京都信用金庫 稲荷支店",
      "address": "京都市伏見区深草稲荷榎木橋町26",
      "updated": "2026-02-07 15:35:50",
      "weight": 3,
      "count": 1
    },
    {
      "lat": 34.971963,
      "lng": 135.768945,
      "name": "KT430-御屋・梓",
      "address": "京都市伏見区深草森吉町19-7",
      "updated": "2026-02-07 15:35:50",
      "weight": 5,
      "count": 1
    },
    {
      "lat": 34.973535,
      "lng": 135.752371,
      "name": "KT189-近鉄十条駅前",
      "address": "京都市南区西九条東柳ノ内町64-1",
      "updated": "2026-02-07 15:35:50",
      "weight": 1,
      "count": 1
    },
    {
      "lat": 34.973752,
      "lng": 135.761432,
      "name": "KT070-京都ユウベルホテル",
      "address": "京都市南区東九条石田町41-3",
      "updated": "2026-02-07 15:35:50",
      "weight": 2,
      "count": 2
    },
    {
      "lat": 34.974081,
      "lng": 135.764166,
      "name": "KT305-忍者侍",
      "address": "京都市南区東九条柳下町63-4",
      "updated": "2026-02-07 15:35:50",
      "weight": 5,
      "count": 1
    },
    {
      "lat": 34.974424,
      "lng": 135.715178,
      "name": "KT371-スカイラーク桂",
      "address": "京都府京都市西京区牛ケ瀬奥ノ防町７７",
      "updated": "2026-02-07 15:35:50",
      "weight": 3,
      "count": 1
    },
    {
      "lat": 34.974649,
      "lng": 135.763481,
      "name": "KT443-御屋・遥",
      "address": "京都市南区東九条柳下町51-18",
      "updated": "2026-02-07 15:35:50",
      "weight": 1,
      "count": 1
    },
    {
      "lat": 34.974955,
      "lng": 135.70196,
      "name": "KT379-第3紅花園ハイツ",
      "address": "京都市西京区川島玉頭町40-14",
      "updated": "2026-02-07 15:35:50",
      "weight": 1,
      "count": 1
    },
    {
      "lat": 34.975584,
      "lng": 135.728015,
      "name": "KT408-Luxe 京都西大路",
      "address": "京都市南区吉祥院三ノ宮西町98",
      "updated": "2026-02-07 15:35:50",
      "weight": 1,
      "count": 1
    },
    {
      "lat": 34.976024,
      "lng": 135.754825,
      "name": "KT175-西洞院札ノ辻西(くるっとパーク)",
      "address": "京都市南区東九条松田町141-1",
      "updated": "2026-02-07 15:35:50",
      "weight": 2,
      "count": 2
    },
    {
      "lat": 34.976355,
      "lng": 135.747569,
      "name": "KT434-洛和会 東寺南病院",
      "address": "京都市南区西九条南田町1",
      "updated": "2026-02-07 15:35:50",
      "weight": 2,
      "count": 2
    },
    {
      "lat": 34.976698,
      "lng": 135.729484,
      "name": "KT146-京都トヨタ本社",
      "address": "京都市南区吉祥院三ノ宮町100",
      "updated": "2026-02-07 15:35:50",
      "weight": 1,
      "count": 1
    },
    {
      "lat": 34.976886,
      "lng": 135.759559,
      "name": "KT261-OMOTENASHI",
      "address": "京都市南区東九条南烏丸町37",
      "updated": "2026-02-07 15:35:50",
      "weight": 3,
      "count": 1
    },
    {
      "lat": 34.97707,
      "lng": 135.764581,
      "name": "KT431-御屋・榕",
      "address": "京都市南区東九条南松ノ木町33-1",
      "updated": "2026-02-07 15:35:50",
      "weight": 3,
      "count": 3
    },
    {
      "lat": 34.978824,
      "lng": 135.732624,
      "name": "KT406-ドコモショップ西大路駅前店",
      "address": "京都市南区吉祥院清水町3",
      "updated": "2026-02-07 15:35:50",
      "weight": 6,
      "count": 2
    },
    {
      "lat": 34.980099,
      "lng": 135.756958,
      "name": "KT026-京都第一ホテル",
      "address": "京都市南区東九条下殿田町45",
      "updated": "2026-02-07 15:35:50",
      "weight": 5,
      "count": 1
    },
    {
      "lat": 34.981148,
      "lng": 135.746102,
      "name": "KT482-東寺西側(八条内田町)",
      "address": "京都市南区八条内田町88-2",
      "updated": "2026-02-07 15:35:50",
      "weight": 2,
      "count": 2
    },
    {
      "lat": 34.981562,
      "lng": 135.776843,
      "name": "KT154-泉涌寺",
      "address": "京都市東山区泉涌寺山内町28",
      "updated": "2026-02-07 15:35:50",
      "weight": 5,
      "count": 1
    },
    {
      "lat": 34.981673,
      "lng": 135.763779,
      "name": "KT269-Guest House えにし 横側",
      "address": "京都市南区東九条南山王町49-4",
      "updated": "2026-02-07 15:35:50",
      "weight": 5,
      "count": 1
    },
    {
      "lat": 34.981959,
      "lng": 135.769799,
      "name": "KT159-京阪東福寺駅(北側)",
      "address": "京都市東山区本町12-224",
      "updated": "2026-02-07 15:35:50",
      "weight": 6,
      "count": 2
    },
    {
      "lat": 34.982825,
      "lng": 135.755495,
      "name": "KT010-イオンモールKYOTO",
      "address": "京都市南区西九条院町25",
      "updated": "2026-02-07 15:35:50",
      "weight": 3,
      "count": 3
    },
    {
      "lat": 34.983039,
      "lng": 135.756857,
      "name": "KT487-南九条室町(京都駅南側)",
      "address": "京都市南九条室町30-5",
      "updated": "2026-02-07 15:35:50",
      "weight": 6,
      "count": 2
    },
    {
      "lat": 34.983678,
      "lng": 135.762082,
      "name": "KT128-PIECE HOSTEL KYOTO",
      "address": "京都市南区東九条東山王町21-1",
      "updated": "2026-02-07 15:35:50",
      "weight": 5,
      "count": 1
    },
    {
      "lat": 34.986861,
      "lng": 135.77326,
      "name": "KT151-HOTEL KYOTOLOGY",
      "address": "京都市東山区本瓦町672-6",
      "updated": "2026-02-07 15:35:50",
      "weight": 5,
      "count": 1
    },
    {
      "lat": 34.987542,
      "lng": 135.746716,
      "name": "KT036-梅小路公園",
      "address": "京都市下京区観喜寺町56-3",
      "updated": "2026-02-07 15:35:50",
      "weight": 5,
      "count": 1
    },
    {
      "lat": 34.987734,
      "lng": 135.692841,
      "name": "KT503-グルメシティ上桂店",
      "address": "京都市西京区山田畑田町10-1",
      "updated": "2026-02-07 15:35:50",
      "weight": 1,
      "count": 1
    },
    {
      "lat": 34.98839,
      "lng": 135.756081,
      "name": "KT262-FIRST",
      "address": "京都市下京区東塩小路町600-52",
      "updated": "2026-02-07 15:35:50",
      "weight": 1,
      "count": 1
    },
    {
      "lat": 34.988772,
      "lng": 135.735781,
      "name": "KT268-プレジャーコート2",
      "address": "京都市下京区西七条南中野町45",
      "updated": "2026-02-07 15:35:50",
      "weight": 4,
      "count": 2
    },
    {
      "lat": 34.9888,
      "lng": 135.732655,
      "name": "KT113-京都信用金庫 西大路支店",
      "address": "京都市下京区西七条南衣田町86",
      "updated": "2026-02-07 15:35:50",
      "weight": 2,
      "count": 2
    },
    {
      "lat": 34.988873,
      "lng": 135.763991,
      "name": "KT507-七条河原町(南西側)",
      "address": "京都市下京区七条通間之町東入材木町469-7",
      "updated": "2026-02-07 15:35:50",
      "weight": 1,
      "count": 1
    },
    {
      "lat": 34.988906,
      "lng": 135.759069,
      "name": "KT038-烏丸七条",
      "address": "京都市下京区東境町1-182",
      "updated": "2026-02-07 15:35:50",
      "weight": 3,
      "count": 3
    },
    {
      "lat": 34.989266,
      "lng": 135.741181,
      "name": "KT501-MERCADO京都",
      "address": "京都市下京区朱雀北ノ口町59",
      "updated": "2026-02-07 15:35:50",
      "weight": 5,
      "count": 1
    },
    {
      "lat": 34.989285,
      "lng": 135.73974,
      "name": "KT069-Hostel Ayame",
      "address": "京都市下京区朱雀北ノ口町27",
      "updated": "2026-02-07 15:35:50",
      "weight": 6,
      "count": 2
    },
    {
      "lat": 34.989307,
      "lng": 135.777088,
      "name": "KT481-豊国廟",
      "address": "京都市東山区今熊野北日吉町61-1",
      "updated": "2026-02-07 15:35:50",
      "weight": 1,
      "count": 1
    },
    {
      "lat": 34.989447,
      "lng": 135.751147,
      "name": "KT253-龍谷大学 大宮キャンパス東黌",
      "address": "京都市下京区西ハ百屋町135-1",
      "updated": "2026-02-07 15:35:50",
      "weight": 5,
      "count": 1
    },
    {
      "lat": 34.989569,
      "lng": 135.714602,
      "name": "KT427-北條ガレージ",
      "address": "京都市右京区西京極徳大寺団子田町43",
      "updated": "2026-02-07 15:35:50",
      "weight": 7,
      "count": 3
    },
    {
      "lat": 34.989662,
      "lng": 135.692873,
      "name": "KT466-JA京都市 西京支店",
      "address": "京都市西京区山田畑田町24-7",
      "updated": "2026-02-07 15:35:50",
      "weight": 1,
      "count": 1
    },
    {
      "lat": 34.9897,
      "lng": 135.769504,
      "name": "KT307-メゾン・ド・エヌ",
      "address": "京都市東山区本町新六丁目206",
      "updated": "2026-02-07 15:35:50",
      "weight": 6,
      "count": 2
    },
    {
      "lat": 34.990013,
      "lng": 135.74591,
      "name": "KT099-京都梅小路RYOKAN",
      "address": "京都市下京区夷馬場町30-44",
      "updated": "2026-02-07 15:35:50",
      "weight": 6,
      "count": 2
    },
    {
      "lat": 34.99012,
      "lng": 135.74129,
      "name": "KT419-ナビパーク朱雀宝蔵町第2",
      "address": "京都市下京区朱雀宝蔵町91",
      "updated": "2026-02-07 15:35:50",
      "weight": 1,
      "count": 1
    },
    {
      "lat": 34.990338,
      "lng": 135.740378,
      "name": "KT079-KAGANHOTEL-河岸ホテル",
      "address": "京都市下京区朱雀宝蔵町99",
      "updated": "2026-02-07 15:35:50",
      "weight": 3,
      "count": 1
    },
    {
      "lat": 34.990515,
      "lng": 135.766096,
      "name": "KT475-高瀬川ストゥーディオ",
      "address": "京都市下京区上三之宮町284-2 ",
      "updated": "2026-02-07 15:35:50",
      "weight": 1,
      "count": 1
    },
    {
      "lat": 34.99098,
      "lng": 135.753738,
      "name": "KT187-龍谷ミュージアム",
      "address": "京都市下京区西中筋通正面下る丸屋町11",
      "updated": "2026-02-07 15:35:50",
      "weight": 1,
      "count": 1
    },
    {
      "lat": 34.991347,
      "lng": 135.720384,
      "name": "KT520-River Regend2",
      "address": "京都市右京区西京極北裏町8-13",
      "updated": "2026-02-07 15:35:50",
      "weight": 4,
      "count": 2
    },
    {
      "lat": 34.991794,
      "lng": 135.777699,
      "name": "KT524-ゲストハウス ソイ",
      "address": "京都市東山区下馬町509-2",
      "updated": "2026-02-07 15:35:50",
      "weight": 5,
      "count": 1
    },
    {
      "lat": 34.99189,
      "lng": 135.7448,
      "name": "KT319-More七条",
      "address": "京都市下京区西新屋敷上之町141",
      "updated": "2026-02-07 15:35:50",
      "weight": 1,
      "count": 1
    },
    {
      "lat": 34.992593,
      "lng": 135.718961,
      "name": "KT054-アスヴェル京都西京極",
      "address": "京都市右京区西京極西池田町10",
      "updated": "2026-02-07 15:35:50",
      "weight": 1,
      "count": 1
    },
    {
      "lat": 34.992872,
      "lng": 135.753808,
      "name": "KT134-五条IVY",
      "address": "京都市下京区西若松町245",
      "updated": "2026-02-07 15:35:50",
      "weight": 6,
      "count": 2
    },
    {
      "lat": 34.99294,
      "lng": 135.7272,
      "name": "KT316-五力工房",
      "address": "京都市右京区西京極北庄境町61-7",
      "updated": "2026-02-07 15:35:50",
      "weight": 1,
      "count": 1
    },
    {
      "lat": 34.993466,
      "lng": 135.744542,
      "name": "KT359-法華寺",
      "address": "京都市下京区西新屋敷中之町108",
      "updated": "2026-02-07 15:35:50",
      "weight": 7,
      "count": 3
    },
    {
      "lat": 34.994011,
      "lng": 135.758342,
      "name": "KT127-烏丸六条ホテル",
      "address": "京都市下京区東魚屋町233",
      "updated": "2026-02-07 15:35:50",
      "weight": 1,
      "count": 1
    },
    {
      "lat": 34.994026,
      "lng": 135.76638,
      "name": "KT076-ホテルリブマックス京都鴨川前",
      "address": "京都市下京区六軒通早尾町161",
      "updated": "2026-02-07 15:35:50",
      "weight": 6,
      "count": 2
    },
    {
      "lat": 34.99507,
      "lng": 135.755974,
      "name": "KT082-上錫屋町",
      "address": "京都市下京区若宮通上錫屋町74-2-2",
      "updated": "2026-02-07 15:35:50",
      "weight": 1,
      "count": 1
    },
    {
      "lat": 34.995173,
      "lng": 135.701269,
      "name": "KT473-はるかぜガーデン桂川",
      "address": "京都市西京区桂上野西町234",
      "updated": "2026-02-07 15:35:50",
      "weight": 4,
      "count": 2
    },
    {
      "lat": 34.995313,
      "lng": 135.712858,
      "name": "KT191-マルヤマ本社 バス停前",
      "address": "京都市右京区西京極新明町11-1",
      "updated": "2026-02-07 15:35:50",
      "weight": 5,
      "count": 1
    },
    {
      "lat": 34.995453,
      "lng": 135.766748,
      "name": "KT389-GrandE’terna京都",
      "address": "京都市下京区御影堂町10",
      "updated": "2026-02-07 15:35:50",
      "weight": 12,
      "count": 6
    },
    {
      "lat": 34.996096,
      "lng": 135.750521,
      "name": "KT077-ホテルリブマックス京都五条",
      "address": "京都市下京区猪熊通柿本町698-2",
      "updated": "2026-02-07 15:35:50",
      "weight": 5,
      "count": 1
    },
    {
      "lat": 34.996242,
      "lng": 135.728293,
      "name": "KT391-ドコモショップ西大路五条店",
      "address": "京都市右京区西院南寿町10",
      "updated": "2026-02-07 15:35:50",
      "weight": 1,
      "count": 1
    },
    {
      "lat": 34.996543,
      "lng": 135.766228,
      "name": "KT027-京都銀行 河原町支店",
      "address": "京都市下京区安土町612",
      "updated": "2026-02-07 15:35:50",
      "weight": 9,
      "count": 3
    },
    {
      "lat": 34.996593,
      "lng": 135.753656,
      "name": "KT094-イニシア京都五条",
      "address": "京都市下京区油小路通五条上る上金仏町245",
      "updated": "2026-02-07 15:35:50",
      "weight": 5,
      "count": 1
    },
    {
      "lat": 34.996849,
      "lng": 135.728107,
      "name": "KT011-イオンモール京都五条(南東側)",
      "address": "京都市右京区西院追分町25-1",
      "updated": "2026-02-07 15:35:50",
      "weight": 3,
      "count": 1
    },
    {
      "lat": 34.9972,
      "lng": 135.71798,
      "name": "KT303-京都光華女子大学 駐輪場",
      "address": "京都府京都市右京区西京極葛野町38",
      "updated": "2026-02-07 15:35:50",
      "weight": 3,
      "count": 1
    },
    {
      "lat": 34.997626,
      "lng": 135.756657,
      "name": "KT324-プチハウス新町",
      "address": "京都市下京区新町通五条上る材木町128-4",
      "updated": "2026-02-07 15:35:50",
      "weight": 1,
      "count": 1
    },
    {
      "lat": 34.99791,
      "lng": 135.716256,
      "name": "KT232-西京極北大入町(くるっとパーク)",
      "address": "京都市右京区西京極北大入町136-1",
      "updated": "2026-02-07 15:35:50",
      "weight": 1,
      "count": 1
    },
    {
      "lat": 34.997974,
      "lng": 135.777325,
      "name": "KT085-京都銀行 東山支店(GSパーク)",
      "address": "京都市東山区広道通松原上ル辰巳町106",
      "updated": "2026-02-07 15:35:50",
      "weight": 2,
      "count": 2
    },
    {
      "lat": 34.998832,
      "lng": 135.757792,
      "name": "KT061-Vine Oak Cent",
      "address": "京都市下京区松原通新町東入中野之町185",
      "updated": "2026-02-07 15:35:50",
      "weight": 1,
      "count": 1
    },
    {
      "lat": 34.998835,
      "lng": 135.754175,
      "name": "KT532-メゾン京都天神前",
      "address": "京都市下京区天神前町329",
      "updated": "2026-02-07 15:35:50",
      "weight": 5,
      "count": 1
    },
    {
      "lat": 34.998936,
      "lng": 135.76448,
      "name": "KT461-SEIEI ホテル",
      "address": "京都市下京区松原中之町476",
      "updated": "2026-02-07 15:35:50",
      "weight": 1,
      "count": 1
    },
    {
      "lat": 34.99913,
      "lng": 135.761882,
      "name": "KT341-minato hotel",
      "address": "京都市下京区本燈籠町13-1",
      "updated": "2026-02-07 15:35:50",
      "weight": 2,
      "count": 2
    },
    {
      "lat": 34.999303,
      "lng": 135.766838,
      "name": "KT328-More河原町",
      "address": "京都市下京区寺町通松原上る京極町488",
      "updated": "2026-02-07 15:35:50",
      "weight": 5,
      "count": 1
    },
    {
      "lat": 34.999737,
      "lng": 135.766337,
      "name": "KT041-桝屋町(御幸町高辻下る)",
      "address": "京都市下京区御幸町通高辻下る桝屋町467",
      "updated": "2026-02-07 15:35:50",
      "weight": 3,
      "count": 1
    },
    {
      "lat": 34.99974,
      "lng": 135.775593,
      "name": "KT387-J'fort祇園四条",
      "address": "京都市東山区小松町564ｰ38",
      "updated": "2026-02-07 15:35:50",
      "weight": 2,
      "count": 2
    },
    {
      "lat": 35.000146,
      "lng": 135.761796,
      "name": "KT383-京都高辻ビル",
      "address": "京都市下京区稲荷町521",
      "updated": "2026-02-07 15:35:50",
      "weight": 5,
      "count": 1
    },
    {
      "lat": 35.0003,
      "lng": 135.776104,
      "name": "KT384-第8パールハイツ安井 (安井神社入口前)",
      "address": "京都市東山区毘沙門町46",
      "updated": "2026-02-07 15:35:50",
      "weight": 1,
      "count": 1
    },
    {
      "lat": 35.000435,
      "lng": 135.7761,
      "name": "KT385-第8パールハイツ安井 (B1F 地下駐輪場)",
      "address": "京都市東山区毘沙門町46",
      "updated": "2026-02-07 15:35:50",
      "weight": 5,
      "count": 1
    },
    {
      "lat": 35.001048,
      "lng": 135.755041,
      "name": "KT044-Wayfarer ホテル京都四条",
      "address": "京都市下京区西洞院通仏光寺下ル本柳水町768",
      "updated": "2026-02-07 15:35:50",
      "weight": 7,
      "count": 3
    },
    {
      "lat": 35.001272,
      "lng": 135.716511,
      "name": "KT483-西院西貝川町",
      "address": "京都市右京区西院西貝川町73",
      "updated": "2026-02-07 15:35:50",
      "weight": 1,
      "count": 1
    },
    {
      "lat": 35.001277,
      "lng": 135.759225,
      "name": "KT306-京都小川ビル・SoloTime 京都店",
      "address": "京都市下京区釘隠町255",
      "updated": "2026-02-07 15:35:50",
      "weight": 6,
      "count": 2
    },
    {
      "lat": 35.001429,
      "lng": 135.748859,
      "name": "KT016-ホテルメルディア京都四条大宮",
      "address": "京都市下京区綾大宮町66",
      "updated": "2026-02-07 15:35:50",
      "weight": 3,
      "count": 1
    },
    {
      "lat": 35.001463,
      "lng": 135.768599,
      "name": "KT248-京阪四条河原町ビル",
      "address": "京都市下京区二丁目富永町338",
      "updated": "2026-02-07 15:35:50",
      "weight": 4,
      "count": 4
    },
    {
      "lat": 35.001596,
      "lng": 135.731542,
      "name": "KT498-ウエストハイツ",
      "address": "京都市右京区西院西三蔵町28-9",
      "updated": "2026-02-07 15:35:50",
      "weight": 1,
      "count": 1
    },
    {
      "lat": 35.001645,
      "lng": 135.765428,
      "name": "KT042-デザインホテル京都麩屋町",
      "address": "京都市下京区麸屋町通綾小路下る俵屋町291",
      "updated": "2026-02-07 15:35:50",
      "weight": 2,
      "count": 2
    },
    {
      "lat": 35.002021,
      "lng": 135.703283,
      "name": "KT495-オーネイト・グレース",
      "address": "京都市右京区梅津搆口町45-2",
      "updated": "2026-02-07 15:35:50",
      "weight": 5,
      "count": 1
    },
    {
      "lat": 35.002376,
      "lng": 135.769112,
      "name": "KT004-GOOD NATURE STATION",
      "address": "京都市下京区稲荷町2-318-6 B1F",
      "updated": "2026-02-07 15:35:50",
      "weight": 6,
      "count": 2
    },
    {
      "lat": 35.002456,
      "lng": 135.75917,
      "name": "KT412-AYA四条烏丸ビル",
      "address": "京都市下京区童侍者町167",
      "updated": "2026-02-07 15:35:50",
      "weight": 1,
      "count": 1
    },
    {
      "lat": 35.002971,
      "lng": 135.770747,
      "name": "KT117-陣の花",
      "address": "京都市下京区西石垣通四条下る斎藤町140-6",
      "updated": "2026-02-07 15:35:50",
      "weight": 4,
      "count": 2
    },
    {
      "lat": 35.003201,
      "lng": 135.764049,
      "name": "KT023-京都信用金庫 本店",
      "address": "京都市下京区立売東町7",
      "updated": "2026-02-07 15:35:50",
      "weight": 8,
      "count": 4
    },
    {
      "lat": 35.003291,
      "lng": 135.77293,
      "name": "KT521-ぎおんビル",
      "address": "京都市東山区大和町9",
      "updated": "2026-02-07 15:35:50",
      "weight": 6,
      "count": 2
    },
    {
      "lat": 35.003484,
      "lng": 135.738893,
      "name": "KT115-京都信用金庫 壬生支店",
      "address": "京都市中京区壬生森前町2",
      "updated": "2026-02-07 15:35:50",
      "weight": 3,
      "count": 1
    },
    {
      "lat": 35.003526,
      "lng": 135.717378,
      "name": "KT363-ドコモショップ四条外大前店②(奥側)",
      "address": "京都市右京区西院東貝川町2",
      "updated": "2026-02-07 15:35:50",
      "weight": 3,
      "count": 3
    },
    {
      "lat": 35.003718,
      "lng": 135.729509,
      "name": "KT022-京都中央信用金庫 西院支店",
      "address": "京都市右京区西院巽町35",
      "updated": "2026-02-07 15:35:50",
      "weight": 5,
      "count": 1
    },
    {
      "lat": 35.003915,
      "lng": 135.724749,
      "name": "KT186-京都町家 西京院",
      "address": "京都市右京区西院小米町34-1",
      "updated": "2026-02-07 15:35:50",
      "weight": 3,
      "count": 1
    },
    {
      "lat": 35.004644,
      "lng": 135.769681,
      "name": "KT400-グランジット 京都河原町",
      "address": "京都市中京区河原町通四条上る米屋町 380番2",
      "updated": "2026-02-07 15:35:50",
      "weight": 4,
      "count": 2
    },
    {
      "lat": 35.00469,
      "lng": 135.77769,
      "name": "KT228-よしもと祇園花月前(GSパーク)",
      "address": "京都市東山区祇園町北側305",
      "updated": "2026-02-07 15:35:50",
      "weight": 5,
      "count": 1
    },
    {
      "lat": 35.004778,
      "lng": 135.758801,
      "name": "KT001-占出山町(四条烏丸)",
      "address": "京都市中京区占出山町310-6",
      "updated": "2026-02-07 15:35:50",
      "weight": 1,
      "count": 1
    },
    {
      "lat": 35.0049541,
      "lng": 135.7498994,
      "name": "KT367-四条大宮北東(錦小路通黒門通東入る)",
      "address": "京都市中京区錦小路猪熊西入七軒477",
      "updated": "2026-02-07 15:35:50",
      "weight": 5,
      "count": 1
    },
    {
      "lat": 35.005267,
      "lng": 135.755267,
      "name": "KT048-HIRANOビル",
      "address": "京都市中京区古西町448",
      "updated": "2026-02-07 15:35:50",
      "weight": 6,
      "count": 4
    },
    {
      "lat": 35.005784,
      "lng": 135.706171,
      "name": "KT432-梅津段町ビル",
      "address": "京都市右京区梅津段町18番地4",
      "updated": "2026-02-07 15:35:50",
      "weight": 3,
      "count": 1
    },
    {
      "lat": 35.006664,
      "lng": 135.738391,
      "name": "KT402-京都CozyHouse二条",
      "address": "京都市中京区壬生神明町1-135",
      "updated": "2026-02-07 15:35:50",
      "weight": 6,
      "count": 2
    },
    {
      "lat": 35.006812,
      "lng": 135.764829,
      "name": "KT378-皇都ビル(南側)",
      "address": "京都市中京区骨屋之町560",
      "updated": "2026-02-07 15:35:50",
      "weight": 1,
      "count": 1
    },
    {
      "lat": 35.0069,
      "lng": 135.7757,
      "name": "KT410-MODISH GION SHIRAKAWA",
      "address": "京都市東山区古門通大和大路東入三吉町2-336",
      "updated": "2026-02-07 15:35:50",
      "weight": 7,
      "count": 3
    },
    {
      "lat": 35.007025,
      "lng": 135.750462,
      "name": "KT533-三条ホテル",
      "address": "京都市中京区六角猪熊618",
      "updated": "2026-02-07 15:35:50",
      "weight": 3,
      "count": 1
    },
    {
      "lat": 35.007587,
      "lng": 135.75371,
      "name": "KT043-RESI STAY ANDON - 行燈 -",
      "address": "京都市中京区油小路通り三条下る三条油小路町173-6",
      "updated": "2026-02-07 15:35:50",
      "weight": 1,
      "count": 1
    },
    {
      "lat": 35.007732,
      "lng": 135.764858,
      "name": "KT002-Alanet KYOTO",
      "address": "京都市中京区朝倉町541",
      "updated": "2026-02-07 15:35:50",
      "weight": 1,
      "count": 1
    },
    {
      "lat": 35.008241,
      "lng": 135.682063,
      "name": "KT478-The GrandWest Arashiyama",
      "address": "京都市西京区嵐山上海道町48",
      "updated": "2026-02-07 15:35:50",
      "weight": 6,
      "count": 2
    },
    {
      "lat": 35.008707,
      "lng": 135.760415,
      "name": "KT446-NTT西日本 京都支店",
      "address": "京都市中京区場之町604",
      "updated": "2026-02-07 15:35:50",
      "weight": 5,
      "count": 1
    },
    {
      "lat": 35.00872,
      "lng": 135.772515,
      "name": "KT030-京阪三条駅前(4.5番出口)",
      "address": "京都市東山区五軒町130-1",
      "updated": "2026-02-07 15:35:50",
      "weight": 2,
      "count": 2
    },
    {
      "lat": 35.008748,
      "lng": 135.755785,
      "name": "KT106-京都信用金庫 三条支店",
      "address": "京都市中京区釜座町１１",
      "updated": "2026-02-07 15:35:50",
      "weight": 5,
      "count": 1
    },
    {
      "lat": 35.00889,
      "lng": 135.750636,
      "name": "KT156-三条姉猪熊(くるっとパーク)",
      "address": "京都市中京区姉猪熊町312",
      "updated": "2026-02-07 15:35:50",
      "weight": 1,
      "count": 1
    },
    {
      "lat": 35.009094,
      "lng": 135.701769,
      "name": "KT346-Maenota ワインショップ",
      "address": "京都市右京区太秦八反田町2-3",
      "updated": "2026-02-07 15:35:50",
      "weight": 5,
      "count": 1
    },
    {
      "lat": 35.009252,
      "lng": 135.788197,
      "name": "KT311-ウェスティン都ホテル京都",
      "address": "京都市東山区粟田口華頂町1",
      "updated": "2026-02-07 15:35:50",
      "weight": 6,
      "count": 2
    },
    {
      "lat": 35.009734,
      "lng": 135.75128,
      "name": "KT293-メルディアステイ二条城",
      "address": "京都市中京区樽屋町473",
      "updated": "2026-02-07 15:35:50",
      "weight": 9,
      "count": 5
    },
    {
      "lat": 35.010073,
      "lng": 135.763813,
      "name": "KT467-柳馬場御池(くるっとパーク)",
      "address": "京都市中京区柳馬場通御池下る柳八幡町75−1",
      "updated": "2026-02-07 15:35:50",
      "weight": 2,
      "count": 2
    },
    {
      "lat": 35.010523,
      "lng": 135.679603,
      "name": "KT289-ホテルリバーサイド嵐山",
      "address": "京都市西京区嵐山中尾下町10",
      "updated": "2026-02-07 15:35:50",
      "weight": 2,
      "count": 2
    },
    {
      "lat": 35.010524,
      "lng": 135.760178,
      "name": "KT009-アーバネックス御池西館(烏丸御池)",
      "address": "京都市中京区梅屋町358",
      "updated": "2026-02-07 15:35:50",
      "weight": 5,
      "count": 1
    },
    {
      "lat": 35.01061,
      "lng": 135.714139,
      "name": "KT425-UniLife-Uni E’meal太秦天神川",
      "address": "京都市右京区太秦下刑部町19-1",
      "updated": "2026-02-07 15:35:50",
      "weight": 6,
      "count": 2
    },
    {
      "lat": 35.010612,
      "lng": 135.741602,
      "name": "KT381-JR二条駅(西口)",
      "address": "京都市中京区西ノ京東栂尾町3",
      "updated": "2026-02-07 15:35:50",
      "weight": 1,
      "count": 1
    },
    {
      "lat": 35.010999,
      "lng": 135.750601,
      "name": "KT531-最上町(二条城前駅 南側)",
      "address": "京都市中京区猪熊通御池上る最上町394-4",
      "updated": "2026-02-07 15:35:50",
      "weight": 1,
      "count": 1
    },
    {
      "lat": 35.011081,
      "lng": 135.756073,
      "name": "KT274-ホテルシャトレーイン京都 駐車場側",
      "address": "京都市中京区橋之町745-1",
      "updated": "2026-02-07 15:35:50",
      "weight": 1,
      "count": 1
    },
    {
      "lat": 35.011114,
      "lng": 135.757299,
      "name": "KT014-パークホテル京都御池",
      "address": "京都市中京区西横町180",
      "updated": "2026-02-07 15:35:50",
      "weight": 3,
      "count": 1
    },
    {
      "lat": 35.011216,
      "lng": 135.735859,
      "name": "KT040-京都トヨタ御池店",
      "address": "京都市中京区西ノ京銅駝町76-1",
      "updated": "2026-02-07 15:35:50",
      "weight": 2,
      "count": 2
    },
    {
      "lat": 35.011434,
      "lng": 135.715241,
      "name": "KT073-大衆酒場 天 太秦天神川店",
      "address": "京都市右京区太秦下刑部町148",
      "updated": "2026-02-07 15:35:50",
      "weight": 1,
      "count": 1
    },
    {
      "lat": 35.011803,
      "lng": 135.77784,
      "name": "KT149-a-un(お宿)",
      "address": "京都市左京区北門前町507",
      "updated": "2026-02-07 15:35:50",
      "weight": 1,
      "count": 1
    },
    {
      "lat": 35.0119466,
      "lng": 135.773115,
      "name": "KT051-石孫ビル",
      "address": "京都市左京区新丸太町37-8",
      "updated": "2026-02-07 15:35:50",
      "weight": 1,
      "count": 1
    },
    {
      "lat": 35.012211,
      "lng": 135.731695,
      "name": "KT518-アンビシャスおいけ",
      "address": "京都市中京区西ノ京東中合町29",
      "updated": "2026-02-07 15:35:50",
      "weight": 4,
      "count": 2
    },
    {
      "lat": 35.013253,
      "lng": 135.708581,
      "name": "KT453-RAPPORT太秦広隆寺",
      "address": "京都市右京区太秦組石町14-1",
      "updated": "2026-02-07 15:35:50",
      "weight": 5,
      "count": 1
    },
    {
      "lat": 35.0135509,
      "lng": 135.732298,
      "name": "KT329-東洋精機製作所",
      "address": "京都市中京区西ノ京南上合町103",
      "updated": "2026-02-07 15:35:50",
      "weight": 4,
      "count": 4
    },
    {
      "lat": 35.013564,
      "lng": 135.783293,
      "name": "KT024-京都市京セラ美術館",
      "address": "京都市左京区岡崎円勝寺町124",
      "updated": "2026-02-07 15:35:50",
      "weight": 5,
      "count": 1
    },
    {
      "lat": 35.01402,
      "lng": 135.67877,
      "name": "KT224-嵐山ビジターズステーション＆カフェ",
      "address": "京都市右京区嵯峨天龍寺造路町33",
      "updated": "2026-02-07 15:35:50",
      "weight": 2,
      "count": 2
    },
    {
      "lat": 35.014121,
      "lng": 135.769102,
      "name": "KT260-チャプター京都 トリビュートポートフォリオホテル",
      "address": "京都市中京区清水町341",
      "updated": "2026-02-07 15:35:50",
      "weight": 1,
      "count": 1
    },
    {
      "lat": 35.014326,
      "lng": 135.755075,
      "name": "KT429-ファミリー向け民泊京都かつら二条",
      "address": "京都市中京区西洞院通夷川下る薬師町649-7",
      "updated": "2026-02-07 15:35:50",
      "weight": 1,
      "count": 1
    },
    {
      "lat": 35.014413,
      "lng": 135.691643,
      "name": "KT519-cafe Garage Kyoto(南側駐輪場)",
      "address": "京都市右京区嵯峨朝日町2-9",
      "updated": "2026-02-07 15:35:50",
      "weight": 4,
      "count": 2
    },
    {
      "lat": 35.014488,
      "lng": 135.77271,
      "name": "KT138-Suminagi 新先斗町",
      "address": "京都市左京区新先斗町147",
      "updated": "2026-02-07 15:35:50",
      "weight": 3,
      "count": 1
    },
    {
      "lat": 35.014511,
      "lng": 135.788221,
      "name": "KT462-ホテルジャルダンフルール",
      "address": "京都市左京区岡崎法勝寺町1-13",
      "updated": "2026-02-07 15:35:50",
      "weight": 1,
      "count": 1
    },
    {
      "lat": 35.014714,
      "lng": 135.77455,
      "name": "KT148-秋築町",
      "address": "京都市左京区秋築町254",
      "updated": "2026-02-07 15:35:50",
      "weight": 2,
      "count": 2
    },
    {
      "lat": 35.015246,
      "lng": 135.742394,
      "name": "KT090-ドーミー千本二条",
      "address": "京都市中京区聚楽廻南町24-3",
      "updated": "2026-02-07 15:35:50",
      "weight": 1,
      "count": 1
    },
    {
      "lat": 35.015415,
      "lng": 135.757936,
      "name": "KT335-S.R 丸太町",
      "address": "京都市中京区鏡屋町41",
      "updated": "2026-02-07 15:35:50",
      "weight": 5,
      "count": 1
    },
    {
      "lat": 35.016019,
      "lng": 135.777611,
      "name": "KT125-熊野道谷口マンション",
      "address": "京都市左京区聖護院蓮華蔵町56-11",
      "updated": "2026-02-07 15:35:50",
      "weight": 5,
      "count": 1
    },
    {
      "lat": 35.016975,
      "lng": 135.752205,
      "name": "KT162-FUJIYA",
      "address": "京都市中京区東堀川通丸太町下ル7-4",
      "updated": "2026-02-07 15:35:50",
      "weight": 1,
      "count": 1
    },
    {
      "lat": 35.016996,
      "lng": 135.772548,
      "name": "KT017-下堤谷口マンション(神宮丸太町駅前2番出口)",
      "address": "京都市左京区下堤町83",
      "updated": "2026-02-07 15:35:50",
      "weight": 1,
      "count": 1
    },
    {
      "lat": 35.017094,
      "lng": 135.712857,
      "name": "KT067-京ノ紙技 粟倉紙工",
      "address": "京都市右京区太秦和泉式部町19",
      "updated": "2026-02-07 15:35:50",
      "weight": 5,
      "count": 1
    },
    {
      "lat": 35.017096,
      "lng": 135.768608,
      "name": "KT137-京都阿美家",
      "address": "京都市上京区東土御門町343-1",
      "updated": "2026-02-07 15:35:50",
      "weight": 3,
      "count": 1
    },
    {
      "lat": 35.018383,
      "lng": 135.733637,
      "name": "KT517-グランドール２",
      "address": "京都市中京区西ノ京上平町25 ",
      "updated": "2026-02-07 15:35:50",
      "weight": 2,
      "count": 2
    },
    {
      "lat": 35.018776,
      "lng": 135.729547,
      "name": "KT308-京都信用金庫 円町支店",
      "address": "京都市中京区西ノ京南大炊御門町32-1",
      "updated": "2026-02-07 15:35:50",
      "weight": 1,
      "count": 1
    },
    {
      "lat": 35.018919,
      "lng": 135.742736,
      "name": "KT239-爲國淳史税理士事務所",
      "address": "京都市上京区千本通丸太町上る小山町876-2",
      "updated": "2026-02-07 15:35:50",
      "weight": 1,
      "count": 1
    },
    {
      "lat": 35.019269,
      "lng": 135.711043,
      "name": "KT458-ドコモショップ常盤東店",
      "address": "京都市右京区常盤東ノ町26-3",
      "updated": "2026-02-07 15:35:50",
      "weight": 8,
      "count": 2
    },
    {
      "lat": 35.019875,
      "lng": 135.697852,
      "name": "KT210-ヴィラトワベル",
      "address": "京都市右京区太秦中筋町8-2",
      "updated": "2026-02-07 15:35:50",
      "weight": 1,
      "count": 1
    },
    {
      "lat": 35.019928,
      "lng": 135.706497,
      "name": "KT356-ヘルパーステーション ヘルプゆう",
      "address": "京都市右京区常盤窪町1-174",
      "updated": "2026-02-07 15:35:50",
      "weight": 5,
      "count": 3
    },
    {
      "lat": 35.020292,
      "lng": 135.736584,
      "name": "KT474-はるかぜガーデン御前",
      "address": "京都市上京区西東町339",
      "updated": "2026-02-07 15:35:50",
      "weight": 5,
      "count": 1
    },
    {
      "lat": 35.020433,
      "lng": 135.747827,
      "name": "KT078-ホステルムンド",
      "address": "京都市上京区天秤町596",
      "updated": "2026-02-07 15:35:50",
      "weight": 1,
      "count": 1
    },
    {
      "lat": 35.020711,
      "lng": 135.692019,
      "name": "KT147-サンメンバーズ京都嵯峨",
      "address": "京都市右京区嵯峨広沢南野町27-1",
      "updated": "2026-02-07 15:35:50",
      "weight": 6,
      "count": 2
    },
    {
      "lat": 35.020748,
      "lng": 135.784362,
      "name": "KT438-善正寺",
      "address": "京都市左京区岡崎東福ノ川町9",
      "updated": "2026-02-07 15:35:50",
      "weight": 1,
      "count": 1
    },
    {
      "lat": 35.021043,
      "lng": 135.733507,
      "name": "KT287-MODISH NIJO ENMACHI",
      "address": "京都市上京区堀川町526",
      "updated": "2026-02-07 15:35:50",
      "weight": 1,
      "count": 1
    },
    {
      "lat": 35.021133,
      "lng": 135.693269,
      "name": "KT525-嵯峨広沢南野町",
      "address": "京都市右京区嵯峨広沢南野町11-30",
      "updated": "2026-02-07 15:35:50",
      "weight": 6,
      "count": 6
    },
    {
      "lat": 35.021139,
      "lng": 135.787745,
      "name": "KT161-くろ谷金戒光明寺北側駐車場",
      "address": "京都市左京区浄土寺真如町3",
      "updated": "2026-02-07 15:35:50",
      "weight": 3,
      "count": 1
    },
    {
      "lat": 35.021227,
      "lng": 135.758575,
      "name": "KT163-安達くみひも館",
      "address": "京都市上京区中出水町390",
      "updated": "2026-02-07 15:35:50",
      "weight": 1,
      "count": 1
    },
    {
      "lat": 35.022526,
      "lng": 135.758826,
      "name": "KT164-護王神社",
      "address": "京都市上京区桜鶴圓町385",
      "updated": "2026-02-07 15:35:50",
      "weight": 5,
      "count": 1
    },
    {
      "lat": 35.023215,
      "lng": 135.759107,
      "name": "KT057-京都ガーデンパレス",
      "address": "京都市上京区通下長者町上ル龍前町605",
      "updated": "2026-02-07 15:35:50",
      "weight": 1,
      "count": 1
    },
    {
      "lat": 35.02394,
      "lng": 135.705198,
      "name": "KT211-鳴滝窯・陶芸教室",
      "address": "京都市右京区鳴滝嵯峨園町5-14",
      "updated": "2026-02-07 15:35:50",
      "weight": 1,
      "count": 1
    },
    {
      "lat": 35.024869,
      "lng": 135.74042,
      "name": "KT124-三軒町(北野商店街西)",
      "address": "京都市上京区三軒町65",
      "updated": "2026-02-07 15:35:50",
      "weight": 2,
      "count": 2
    },
    {
      "lat": 35.024881,
      "lng": 135.791294,
      "name": "KT255-SHARE HOUSEフラットボレロ浄土寺",
      "address": "京都市左京区浄土寺上馬場町4-1",
      "updated": "2026-02-07 15:35:50",
      "weight": 5,
      "count": 1
    },
    {
      "lat": 35.025679,
      "lng": 135.783842,
      "name": "KT246-吉田本町(システムパーク)",
      "address": "京都市左京区吉田本町24",
      "updated": "2026-02-07 15:35:50",
      "weight": 2,
      "count": 2
    },
    {
      "lat": 35.025853,
      "lng": 135.754416,
      "name": "KT064-Vine Oak Wisdom",
      "address": "京都市上京区小川通一条下る小川町203",
      "updated": "2026-02-07 15:35:50",
      "weight": 1,
      "count": 1
    },
    {
      "lat": 35.026149,
      "lng": 135.751348,
      "name": "KT133-一条IVY",
      "address": "京都市上京区福大明神町109",
      "updated": "2026-02-07 15:35:50",
      "weight": 5,
      "count": 1
    },
    {
      "lat": 35.02638,
      "lng": 135.794731,
      "name": "KT126-銀閣寺第2駐車場(くるっとパーク)",
      "address": "京都市左京区浄土寺石橋町3",
      "updated": "2026-02-07 15:35:50",
      "weight": 1,
      "count": 1
    },
    {
      "lat": 35.026384,
      "lng": 135.74559,
      "name": "KT132-西陣IVY",
      "address": "京都市上京区南新在家町334",
      "updated": "2026-02-07 15:35:50",
      "weight": 5,
      "count": 1
    },
    {
      "lat": 35.026449,
      "lng": 135.773003,
      "name": "KT288-上阿逹谷口マンション",
      "address": "京都市左京区吉田上阿達町37-3",
      "updated": "2026-02-07 15:35:50",
      "weight": 1,
      "count": 1
    },
    {
      "lat": 35.026615,
      "lng": 135.7276,
      "name": "KT219-北野西白梅町(くるっとパーク)",
      "address": "京都市北区北野西白梅町27",
      "updated": "2026-02-07 15:35:50",
      "weight": 2,
      "count": 2
    },
    {
      "lat": 35.02733,
      "lng": 135.730532,
      "name": "KT141-イズミヤ白梅町店(1F)",
      "address": "京都市北区北野下白梅町6-1",
      "updated": "2026-02-07 15:35:50",
      "weight": 1,
      "count": 1
    },
    {
      "lat": 35.028094,
      "lng": 135.746804,
      "name": "KT452-Marble BLDG. 西側",
      "address": "京都市上京区笹屋町1-520",
      "updated": "2026-02-07 15:35:50",
      "weight": 3,
      "count": 1
    },
    {
      "lat": 35.028541,
      "lng": 135.755926,
      "name": "KT238-今出川新町(くるっとパーク)",
      "address": "京都市上京区徳大寺殿町352",
      "updated": "2026-02-07 15:35:50",
      "weight": 5,
      "count": 3
    },
    {
      "lat": 35.02882,
      "lng": 135.731274,
      "name": "KT394-ドコモショップ北野白梅町店",
      "address": "京都市北区北野紅梅町88",
      "updated": "2026-02-07 15:35:50",
      "weight": 5,
      "count": 1
    },
    {
      "lat": 35.02943,
      "lng": 135.754135,
      "name": "KT217-京都市小川特別養護老人ホーム",
      "address": "京都市上京区小川通今出川下る西入東今町375",
      "updated": "2026-02-07 15:35:50",
      "weight": 4,
      "count": 2
    },
    {
      "lat": 35.029462,
      "lng": 135.769926,
      "name": "KT021-京都中央信用金庫 出町支店",
      "address": "京都市上京区青龍町258",
      "updated": "2026-02-07 15:35:50",
      "weight": 4,
      "count": 2
    },
    {
      "lat": 35.030314,
      "lng": 135.742589,
      "name": "KT112-京都信用金庫 西陣支店",
      "address": "京都市上京区上善寺町108",
      "updated": "2026-02-07 15:35:50",
      "weight": 4,
      "count": 2
    },
    {
      "lat": 35.030979,
      "lng": 135.738113,
      "name": "KT409-京の宿 華 -西陣-",
      "address": "京都市上京区西柳町572-1",
      "updated": "2026-02-07 15:35:50",
      "weight": 5,
      "count": 1
    },
    {
      "lat": 35.031527,
      "lng": 135.794967,
      "name": "KT053-アズィール",
      "address": "京都市左京区北白川上池田町51",
      "updated": "2026-02-07 15:35:50",
      "weight": 1,
      "count": 1
    },
    {
      "lat": 35.034365,
      "lng": 135.73273,
      "name": "KT456-シャトレカルム衣笠",
      "address": "京都市北区衣笠大祓町15-5",
      "updated": "2026-02-07 15:35:50",
      "weight": 1,
      "count": 1
    },
    {
      "lat": 35.034404,
      "lng": 135.726647,
      "name": "KT222-立命館大学前(くるっとパーク)",
      "address": "京都市北区平野上柳町17",
      "updated": "2026-02-07 15:35:50",
      "weight": 5,
      "count": 3
    },
    {
      "lat": 35.034603,
      "lng": 135.726487,
      "name": "KT221-ファミリーマート立命館大学前",
      "address": "京都市北区平野上柳町17-42",
      "updated": "2026-02-07 15:35:50",
      "weight": 3,
      "count": 3
    },
    {
      "lat": 35.035149,
      "lng": 135.746877,
      "name": "KT382-クレドール西陣大宮",
      "address": "京都市上京区中社町357",
      "updated": "2026-02-07 15:35:50",
      "weight": 6,
      "count": 2
    },
    {
      "lat": 35.036361,
      "lng": 135.753792,
      "name": "KT352-妙覺寺 駐輪場",
      "address": "京都市上京区下清蔵口町135",
      "updated": "2026-02-07 15:35:50",
      "weight": 5,
      "count": 1
    },
    {
      "lat": 35.0366639,
      "lng": 135.777743,
      "name": "KT386-J'fort高野",
      "address": "京都市左京区高野清水町138-1",
      "updated": "2026-02-07 15:35:50",
      "weight": 1,
      "count": 1
    },
    {
      "lat": 35.037327,
      "lng": 135.781473,
      "name": "KT179-カプセルホテル漫遊堂",
      "address": "京都市左京区田中西大久保町14",
      "updated": "2026-02-07 15:35:50",
      "weight": 5,
      "count": 1
    },
    {
      "lat": 35.038401,
      "lng": 135.791858,
      "name": "KT296-ペットショップ ピーターパン",
      "address": "京都市左京区一乗寺樋ノ口町59-3",
      "updated": "2026-02-07 15:35:50",
      "weight": 1,
      "count": 1
    },
    {
      "lat": 35.038908,
      "lng": 135.759476,
      "name": "KT236-京都信用金庫 鞍馬口支店",
      "address": "京都市北区小山下総町40-11",
      "updated": "2026-02-07 15:35:50",
      "weight": 3,
      "count": 1
    },
    {
      "lat": 35.040887,
      "lng": 135.756858,
      "name": "KT247-小山南大野町",
      "address": "京都市北区小山南大野町24-1",
      "updated": "2026-02-07 15:35:50",
      "weight": 1,
      "count": 1
    },
    {
      "lat": 35.041158,
      "lng": 135.78154,
      "name": "KT215-イズミヤ高野店",
      "address": "京都市左京区高野東開町16",
      "updated": "2026-02-07 15:35:50",
      "weight": 1,
      "count": 1
    },
    {
      "lat": 35.041518,
      "lng": 135.736101,
      "name": "KT095-デ・リード金閣寺道",
      "address": "京都市北区衣笠東開キ町26-4",
      "updated": "2026-02-07 15:35:50",
      "weight": 3,
      "count": 3
    },
    {
      "lat": 35.042311,
      "lng": 135.779432,
      "name": "KT449-NTT西日本 賀茂別館",
      "address": "京都市左京区高野西開町46",
      "updated": "2026-02-07 15:35:50",
      "weight": 1,
      "count": 1
    },
    {
      "lat": 35.042922,
      "lng": 135.748563,
      "name": "KT537-門前湯",
      "address": "京都市北区紫野門前町30",
      "updated": "2026-02-07 15:35:50",
      "weight": 1,
      "count": 1
    },
    {
      "lat": 35.043983,
      "lng": 135.759011,
      "name": "KT071-京都中央信用金庫 北烏丸支店",
      "address": "京都市北区小山北上総町2-2",
      "updated": "2026-02-07 15:35:50",
      "weight": 5,
      "count": 3
    },
    {
      "lat": 35.048913,
      "lng": 135.767382,
      "name": "KT225-京都府立京都学・歴彩館",
      "address": "京都市左京区下鴨半木町1-29",
      "updated": "2026-02-07 15:35:50",
      "weight": 4,
      "count": 4
    },
    {
      "lat": 35.050911,
      "lng": 135.751049,
      "name": "KT433-紫竹上本町",
      "address": "京都市北区紫竹上本町3番地",
      "updated": "2026-02-07 15:35:50",
      "weight": 5,
      "count": 1
    },
    {
      "lat": 35.051261,
      "lng": 135.76438,
      "name": "KT369-北山バプテスト教会",
      "address": "京都市北区上賀茂岩ケ垣内町37",
      "updated": "2026-02-07 15:35:50",
      "weight": 4,
      "count": 4
    },
    {
      "lat": 35.051443,
      "lng": 135.748493,
      "name": "KT416-シエルコート紫竹",
      "address": "京都市北区紫竹上緑町41-1",
      "updated": "2026-02-07 15:35:50",
      "weight": 5,
      "count": 1
    },
    {
      "lat": 35.052098,
      "lng": 135.767087,
      "name": "KT180-北山駅前駐輪場(くるっとパーク)",
      "address": "京都市北区上賀茂岩ケ垣内町105",
      "updated": "2026-02-07 15:35:50",
      "weight": 2,
      "count": 2
    },
    {
      "lat": 35.054511,
      "lng": 135.747884,
      "name": "KT298-つるかめ製麺所(西側)",
      "address": "京都市北区大宮椿原町16",
      "updated": "2026-02-07 15:35:50",
      "weight": 4,
      "count": 2
    },
    {
      "lat": 35.055588,
      "lng": 135.748395,
      "name": "KT485-幸 Go! say!",
      "address": "京都市北区大宮南椿原町21-1",
      "updated": "2026-02-07 15:35:50",
      "weight": 5,
      "count": 1
    },
    {
      "lat": 35.057185,
      "lng": 135.754404,
      "name": "KT420-京都北山 薬膳いろ",
      "address": "京都市北区上賀茂中大路町3-4",
      "updated": "2026-02-07 15:35:50",
      "weight": 2,
      "count": 2
    },
    {
      "lat": 35.05777,
      "lng": 135.751753,
      "name": "KT301-きりん(上賀茂神社前)",
      "address": "京都市北区上賀茂御薗口町6-1",
      "updated": "2026-02-07 15:35:50",
      "weight": 4,
      "count": 2
    },
    {
      "lat": 35.060033,
      "lng": 135.750824,
      "name": "KT334-ホームズ上賀茂",
      "address": "京都市北区上賀茂朝露ケ原町27-11",
      "updated": "2026-02-07 15:35:50",
      "weight": 1,
      "count": 1
    },
    {
      "lat": 35.063228,
      "lng": 135.741958,
      "name": "KT365-西賀茂大道口町(今原公園北東)",
      "address": "京都市北区西賀茂大道口町11",
      "updated": "2026-02-07 15:35:50",
      "weight": 6,
      "count": 2
    },
    {
      "lat": 35.064392,
      "lng": 135.785563,
      "name": "KT181-地下鉄国際会館駅前",
      "address": "京都市左京区岩倉大鷺町",
      "updated": "2026-02-07 15:35:50",
      "weight": 3,
      "count": 1
    },
    {
      "lat": 35.065204,
      "lng": 135.780946,
      "name": "KT110-京都信用金庫 岩倉支店",
      "address": "京都市左京区岩倉西五田町27",
      "updated": "2026-02-07 15:35:50",
      "weight": 3,
      "count": 1
    },
    {
      "lat": 35.065974,
      "lng": 135.776034,
      "name": "KT510-嘉門ハイツ",
      "address": "京都市左京区岩倉南平岡町78",
      "updated": "2026-02-07 15:35:50",
      "weight": 5,
      "count": 1
    },
    {
      "lat": 35.068641,
      "lng": 135.789995,
      "name": "KT472-岩倉三宅町",
      "address": "京都市左京区岩倉三宅町251-5",
      "updated": "2026-02-07 15:35:50",
      "weight": 4,
      "count": 2
    },
    {
      "lat": 35.069895,
      "lng": 135.750138,
      "name": "KT373-グランメゾン上賀茂",
      "address": "京都府京都市北区上賀茂東上之段町２",
      "updated": "2026-02-07 15:35:50",
      "weight": 5,
      "count": 1
    },
    {
      "lat": 35.071979,
      "lng": 135.769666,
      "name": "KT205-京都精華大学 学生食堂れあた",
      "address": "京都市左京区静市市原長818-1",
      "updated": "2026-02-07 15:35:50",
      "weight": 1,
      "count": 1
    },
    {
      "lat": 35.077425,
      "lng": 135.765666,
      "name": "KT167-叡電 二軒茶屋駅前",
      "address": "京都市左京区静市市原町966",
      "updated": "2026-02-07 15:35:50",
      "weight": 3,
      "count": 1
    }
  ]
}